{
  "users": [
    {
      "name": "Igor23344",
      "surname": "admin",
      "mail": "igor.s@onet.pl",
      "password": "admin",
      "photo": "src/assets/user/user1.png",
      "reviews": 1,
      "login": "Admin",
      "id": 1
    },
    {
      "id": 2,
      "name": "Pawel",
      "surname": "admin2",
      "login": "admin2",
      "password": "admin2",
      "reviews": 35,
      "photo": "src/assets/user/user1.png"
    },
    {
      "name": "sadasd",
      "surname": "asdasda",
      "mail": "sdasdsad",
      "password": "test",
      "photo": "src/assets/user/user1.png",
      "reviews": 0,
      "login": "Test",
      "id": 3
    }
  ],
  "places": [
    {
      "id": 1,
      "name": "Astana kebab",
      "city": "Kielce",
      "street": "Paderewsiekigo 15",
      "hours": "7-19",
      "tel": 660654234,
      "reviews": 2,
      "avgReview": 4.5,
      "photo": "src/assets/places/places1.png"
    },
    {
      "id": 2,
      "name": "McDonalds",
      "city": "Kielce",
      "street": "Wojska polskiego 1",
      "hours": "6-5",
      "tel": 660323523,
      "reviews": 5,
      "avgReview": 3.5,
      "photo": "src/assets/places/places1.png"
    },
    {
      "name": "Test",
      "city": "Best",
      "street": "SÄ…siad",
      "hours": "1",
      "phone": "123",
      "id": 3
    },
    {
      "name": "Test",
      "city": "Test",
      "street": "Test",
      "hours": "Test",
      "phone": "tsts",
      "id": 4
    },
    {
      "name": "",
      "city": "",
      "street": "",
      "hours": "",
      "phone": "",
      "id": 5
    }
  ],
  "reviews": [
    {
      "id": 1,
      "idUser": 1,
      "idPlace": 1,
      "content": "ta knajpa jest super",
      "score": 4.5
    },
    {
      "id": 2,
      "idUser": 2,
      "idPlace": 1,
      "content": "super miejsce 2/10",
      "score": 2.5
    }
  ]
}
